OBJECTID,FID_,STOP_ID,LOCATION,BUS_ZONE_T,LENGTH,POSITION,NUB_PARKIN,PARKINGTYP,LATITUDE,LONGITUDE,ARTERIAL,ZONE_HOURS,STATUS,CURRENTSTO,PILOTSTOPE,CREATIONDA,LABEL_PLAC,DECAL_WORK,SIGN_WORK,PAINT_WORK,WORK_ORDER,point,SF Find Neighborhoods,Current Police Districts,Current Supervisor Districts,Analysis Neighborhoods
8,,3197,"7th St&Townsend St NW corner, far-side stop",MuniZone,125,Farside,0,Bus,37.7722,-122.40201,Y,,Rescinded,6,16,Pilot,ExistingPole,Landor,,,03/10/2016 12:00:00 AM +0000,"(37.77219005774664, -122.40198358472426)",32,1,10,34
5,,20048,"Mission St & Steuart St SE corner, mid-block",WhiteZone,145,Mid-block,7,Meter,37.79286,-122.393488,Y,AM PM,Approved,0,,6/21/17,,,,,,"(37.79282429042649, -122.39349522660083)",108,1,10,8
102,,5467,"North Point St & Mason St SE corner, far-side stop",MuniZone,85,Farside,0,Bus,37.80655,-122.41336,Y,,Approved,,,12/4/17,ExistingPole,Landor,,,,"(37.80651966375849, -122.41345506002575)",99,6,3,23
130,,4433,"Divisadero St & Pine St SW corner, far-side",PeakExtensionZone,70-115,Farside,2,Meter,37.786904,-122.44034,Y,AM,Approved,,,11/20/17,,,,,,"(37.786975764327025, -122.44027992928731)",103,4,6,30
127,,20050,"Broadway & Osgood Pl SE corner, far-side stop",WhiteZone,80,Farside,4,Meter,37.798261,-122.402895,Y,AM PM,Approved,,,12/4/17,,,,,,"(37.79825613066689, -122.40290379556318)",106,6,3,23
112,,40019,"Charles J Brenham Pl & Market St NE corner, far-side stop",MuniZone,140,Farside,0,Bus,37.780783,-122.412754,Y,,Approved,,,,,,,,,"(37.780741297825855, -122.41271357212898)",20,5,10,36
100,,3612,"Cyril Magnin St & Market St, NW corner, near-side stop",MuniZone,150,Nearside,0,Bus,37.784149,-122.408388,Y,,Approved,,,10/23/19,,,,,,"(37.7840190452284, -122.40822945841919)",19,5,10,36
125,,20051,"Broadway & Front St NW corner, far-side stop",WhiteZone,80,Farside,4,Meter,37.798825,-122.400155,Y,AM PM,Approved,,,12/11/17,,,,,,"(37.79878414541333, -122.40003028293154)",77,6,3,8
89,,3543,"30th St&Sanchez St NE corner, near-side stop",MuniZone,75,Nearside,0,,37.74202,-122.4286,N,,Rescinded,0,31,Pilot,ExistingPole,Remove,,,03/18/2016 12:00:00 AM +0000,"(37.74201505917384, -122.42858678724089)",84,9,5,22
36,,4715,"Frederick St&Ashbury St NW corner, far-side stop",MuniZone,80,Farside,0,,37.76721,-122.4467,N,,Rescinded,0,21,Pilot,Shelter,Remove,,,03/18/2016 12:00:00 AM +0000,"(37.76720505842064, -122.44668678162293)",25,7,11,3
142,,20038,"South Van NessAve&Mission St SW corner, white zone, 6-10am",WhiteZone,244 to 440 feet south,Mid-block,6,Meter,37.77157,-122.41838,Y,AM,Approved,32,0,6/20/16,,,,,,"(37.77156005999376, -122.41835357935032)",32,1,10,20
131,,6833,"Van Ness Ave&Union St SE corner, near-side stop",PeakExtensionZone,112,Nearside,1,RPP,37.79879,-122.423897,Y,PM,Approved,117,69,Pilot,Landor,Landor,,,03/10/2016 12:00:00 AM +0000,"(37.798402403187566, -122.42386573041284)",105,4,6,32
123,,3735,"Bryant St&18th St SE corner, near-side stop",MuniZone,85,Nearside,0,Bus,37.76167,-122.41004,N,,Approved,4,0,Pilot,Shelter,Shelter,,,03/10/2016 12:00:00 AM +0000,"(37.76166006020052, -122.41001358374345)",53,3,9,20
81,,6121,"Portola Dr&Teresita Blvd NE corner, far-side stop",MuniZone,FLAG STOP,Farside,0,,37.74532,-122.4519,Y,,Rescinded,0,0,Pilot,Shelter (old),Remove,,,03/18/2016 12:00:00 AM +0000,"(37.74531506060083, -122.45188678338039)",72,9,8,41
120,,20047,"Gough St&Geary Blvd SW corner, white zone, 6-10am",WhiteZone,135,Farside,6,RPP,37.78488,-122.42469,Y,AM,Approved,89,0,11/21/16,,,,,,"(37.78487005835907, -122.4246635748643)",100,4,11,39
55,,6003,"Polk St&Union St NE corner, far-side stop",MuniZone,70,Farside,0,Bus,37.79904,-122.42232,Y,,Rescinded,0,3,Pilot,NewLandor,Landor,,,03/10/2016 12:00:00 AM +0000,"(37.799035054021516, -122.4223067815723)",107,4,6,32
113,,20056,"South Van Ness Ave, east side, mid-block north of 17th St, white zone, 4-10pm",WhiteZone,85,Mid-block,4,Unreg,37.764219,-122.417264,Y,PM,Approved,,,6/26/19,,,,,,"(37.76413685852678, -122.41728098537052)",53,3,2,20
20,,3352,"19th Ave&Buckingham St NW corner, near-side stop",MuniZone,80,Nearside,0,Bus,37.72587,-122.4752,Y,,Approved,18,20,Pilot,ExistingPole,Landor,,,03/10/2016 12:00:00 AM +0000,"(37.72586007589858, -122.4751735731544)",41,10,8,16
46,,20018,"Van Ness Ave&Sacramento St SW corner, white zone, 6-10am",WhiteZone,89,Farside,4,Meter,37.79116,-122.42259,Y,AM,Rescinded,0,102,Pilot,ExistingPole,,,,03/10/2016 12:00:00 AM +0000,"(37.791155054689455, -122.42257678244685)",102,4,3,21
84,,5001,"Hayes St&Masonic Ave NW corner, far-side stop",MuniZone,75,Farside,0,,37.77393,-122.44651,N,,Rescinded,0,20,Pilot,Shelter,Remove,,,03/18/2016 12:00:00 AM +0000,"(37.77392505785421, -122.44649678087254)",24,7,11,18
103,,4431,"Divisadero St&Oak St NE corner, far-side stop",MuniZone,80,Farside,0,Bus,37.77346,-122.43738,Y,,Approved,70,56,Pilot,ExistingPole,Landor,,,03/10/2016 12:00:00 AM +0000,"(37.773450063225546, -122.43735357329288)",26,4,11,9
30,,3726,"Bryant St&7th St SE corner, far-side stop",MuniZone,80,Farside,0,Bus,37.77438,-122.40449,Y,,Approved,23,12,Pilot,NewLandor,Landor,,,03/10/2016 12:00:00 AM +0000,"(37.77437005774809, -122.40446358310085)",32,1,10,34
115,,20034,"Brannan St&4th St NW corner, white zone, 6-10am, 4-8pm",WhiteZone,32 to 153 feet west,Farside,6,Meter,37.77769,-122.39744,Y,AM PM,Approved,42,0,5/23/16,,,,White Zone,04/19/2016 12:00:00 AM +0000,"(37.77768005496055, -122.39741358477136)",32,1,10,34
124,,20009,"Harrison St&The Embarcadero SW corner, near-side stop",MuniZone,100,Nearside,0,Bus,37.789306,-122.388694,Y,,Approved,61,78,Pilot,New,,,,03/10/2016 12:00:00 AM +0000,"(37.78944005235221, -122.38866358371631)",30,1,10,8
152,,20046,"San Jose Ave&Valley St SW corner, white zone, 6-10am",WhiteZone,23 to 130 feet south,Farside,6,RPP,37.74436,-122.42269,Y,AM,Approved,48,0,10/11/16,,,,,,"(37.744350064549586, -122.42266358385578)",84,9,5,22
74,,3461,"24th St&Church St SW corner, near-side stop, OFF-PEAK ONLY",MuniZone,90,Nearside,0,Bus,37.75164,-122.42759,Y,,Approved,81,37,Pilot,Shelter,Shelter,,,03/10/2016 12:00:00 AM +0000,"(37.75163006430715, -122.4275635822818)",84,3,5,22
148,,6691,"Townsend St&3rd St, SE corner, far-side stop",MuniZone,73,Farside,0,Bus,37.77893,-122.39253,N,,Approved,8,23,Pilot,Landor,Landor,,,03/10/2016 12:00:00 AM +0000,"(37.77892005549977, -122.39250358536195)",31,1,10,4
15,,20002,"Divisadero St&Geary Blvd SW corner, shuttle zone south of stop, 6-10am",WhiteZone,70,Farside,3,RPP,37.78317,-122.43957,Y,AM,Approved,27,34,Pilot,New,,,,03/10/2016 12:00:00 AM +0000,"(37.78316006058695, -122.43954356983996)",13,4,11,39
13,,4968,"Harrison St&4th St NW corner, far-side stop",MuniZone,119,Farside,0,Bus,37.78061,-122.39999,Y,,Approved,2,2,Pilot,Shelter,Shelter,,,03/10/2016 12:00:00 AM +0000,"(37.780600055906206, -122.3999635830515)",32,1,10,34
104,,3374,"19th Ave&Noriega St SE corner, near-side stop",MuniZone,75,Nearside,0,Bus,37.75412,-122.47629,Y,,Approved,10,8,Pilot,NewLandor,Landor,,,03/10/2016 12:00:00 AM +0000,"(37.75411007065573, -122.47626356572597)",44,10,8,14
50,,6124,"Post St&Gough St SW corner, near-side stop",MuniZone,50,Nearside,0,Bus,37.78612,-122.42498,N,,Rescinded,0,12,Pilot,Shelter,Shelter,,,03/10/2016 12:00:00 AM +0000,"(37.78611505527877, -122.42496678267457)",100,4,11,15
141,,20044,"Lombard St&Scott St SE corner, white zone, 6-10am",WhiteZone,144,Farside,5,Meter,37.79916,-122.44056,Y,AM,Approved,104,0,9/12/16,,,,,,"(37.799150058344964, -122.4405335658361)",14,4,6,13
85,,20053,"Bush St & Larkin St SE corner, far-side, 6-10am",WhiteZone,80,Farside,4,Meter,37.788839,-122.41843,Y,AM,Approved,,,1/29/18,,,,,,"(37.78882215257333, -122.41836123734754)",50,6,3,21
158,,4966,"Harrison St&2nd St NW corner, far-side stop",MuniZone,80,Farside,0,Bus,37.78415,-122.39551,Y,,Approved,14,0,Pilot,NewLandor,Landor,,,03/10/2016 12:00:00 AM +0000,"(37.78414005428724, -122.39548358331095)",32,1,10,8
65,,3331,"18th St&Dolores St SE corner, far-side stop",MuniZone,55,Farside,0,,37.76138,-122.42631,N,,Rescinded,0,22,Pilot,NewLandor,Remove,,,03/18/2016 12:00:00 AM +0000,"(37.76137505741216, -122.4262967853432)",37,3,5,5
38,,20012,"Powell St&Union St NW corner, white zone, 6-10am",WhiteZone,129,Nearside,6,Meter,37.8003,-122.41088,N,AM,Rescinded,0,42,Pilot,New,,,Remove Zone,04/19/2016 12:00:00 AM +0000,"(37.80029505308133, -122.41086678313583)",107,6,3,6
35,,5260,"Laguna St&Hayes St NE corner, far-side stop",MuniZone,75,Farside,0,,37.77675,-122.42627,N,,Rescinded,0,7,Pilot,Shelter,Remove,,,03/18/2016 12:00:00 AM +0000,"(37.77674505614401, -122.4262567825685)",22,4,11,9
118,,4328,"Castro St&25th NW corner, near-side stop",MuniZone,100,Nearside,0,Bus,37.74981,-122.43404,N,,Approved,8,72,Pilot,Shelter,Shelter,,,03/10/2016 12:00:00 AM +0000,"(37.74980006592828, -122.43401357853011)",84,3,5,22
83,,6799,Van Ness Ave&California St NE-FS/BZ,MuniZone,100,Farside,0,,37.79076,-122.42225,Y,,Rescinded,0,97,Pilot,Shelter,Shelter,,,03/10/2016 12:00:00 AM +0000,"(37.7907550546975, -122.42223678254406)",105,4,3,21
99,,5993,"Polk St&O'Farrell St NW corner, near-side stop",MuniZone,75,Nearside,0,Bus,37.78507,-122.41964,Y,,Rescinded,16,3,Pilot,ExistingPole,Landor,,,03/10/2016 12:00:00 AM +0000,"(37.785060057974434, -122.4196135765969)",20,4,10,36
150,,20036,"Franklin St&Bush St NE corner, white zone, 4-8pm",WhiteZone,100,Farside,5,Meter,37.78852,-122.423569,Y,PM,Approved,104,0,6/6/16,,,,,,"(37.78851005697766, -122.42354257360948)",100,4,6,39
9,,5896,"Parnassus Ave&Stanyan St SW corner, near-side stop",MuniZone,75,Nearside,0,Bus,37.76445,-122.4527,Y,,Approved,5,4,Pilot,Shelter,Shelter,,,03/10/2016 12:00:00 AM +0000,"(37.7644400660851, -122.45267357104949)",110,7,11,14
95,,3778,"Bayshore Blvd& Cortland Ave NE corner, far-side stop",MuniZone,100,Farside,0,,37.73986,-122.40677,Y,,Rescinded,0,0,Pilot,Shelter,Remove,,,03/18/2016 12:00:00 AM +0000,"(37.73985505776075, -122.4067567907524)",82,2,9,1
151,,20028,"Gough St&Grove St SW corner, white zone, 6-10am",WhiteZone,80,Farside,4,Meter,37.77777,-122.42334,Y,AM,Approved,31,0,5/23/16,,,,White Zone,04/19/2016 12:00:00 AM +0000,"(37.777760058845544, -122.42331357689055)",22,4,11,9
25,,20037,"Franklin St&Golden Gate Ave NE corner, white zone, 4-8pm",WhiteZone,55 to 181 feet north,Farside,3,Meter,37.78109,-122.42205,Y,PM,Approved,64,0,6/6/16,,,,,,"(37.781080059478015, -122.42202357569833)",100,4,11,39
11,,4848,"Larkin St&Grove St NE corner, far-side stop",MuniZone,80,Farside,0,Bus,37.77871,-122.41659,Y,,Approved,2,13,Pilot,Shelter,Shelter,,,03/10/2016 12:00:00 AM +0000,"(37.77870005827517, -122.41656357779024)",21,5,10,36
47,,4486,"Eddy St&Mason St SW corner, near-side stop",MuniZone,120,Nearside,0,,37.7843,-122.40943,N,,Rescinded,0,0,Pilot,ExistingPole,Remove,,,03/18/2016 12:00:00 AM +0000,"(37.78429505429237, -122.40941678520964)",20,5,10,36
137,,3471,"24th St&Guerrero St NE corner, near-side stop",MuniZone,75,Nearside,0,Bus,37.75202,-122.42273,Y,,Approved,10,13,Pilot,NewLandor,Landor,,,03/10/2016 12:00:00 AM +0000,"(37.75201006392139, -122.42270358196387)",52,3,5,20
108,,3931,"Cesar Chavez St&Folsom St NW corner, far-side stop",MuniZone,100,Farside,0,Bus,37.74834,-122.41407,Y,,Approved,25,24,Pilot,Shelter,Shelter,,,03/10/2016 12:00:00 AM +0000,"(37.748330063593095, -122.41404358568354)",53,3,2,20
144,,5895,"Parnassus Ave&Stanyan St NW corner, far-side stop",MuniZone,60,Farside,0,Bus,37.76452,-122.45289,Y,,Approved,4,4,Pilot,Landor,Landor,,,03/10/2016 12:00:00 AM +0000,"(37.764510066093216, -122.45286357101307)",110,7,11,14
149,,3743,"Bryant St&22nd St SW corner, far-side stop",MuniZone,75,Farside,0,Bus,37.75572,-122.40949,N,,Approved,6,9,Pilot,New,,,,03/10/2016 12:00:00 AM +0000,"(37.75571006165076, -122.40946358551435)",53,3,2,20
117,,3366,"19th Ave&Kirkham St NE corner, far-side stop",MuniZone,75,Farside,0,Bus,37.76015,-122.47671,Y,,Approved,33,39,Pilot,NewLandor,Landor,,,03/10/2016 12:00:00 AM +0000,"(37.76014007019099, -122.47668356596526)",109,10,8,14
78,,5191,"Judah St&7th Ave NW corner, far-side stop",MuniZone,75,Farside,0,,37.76231,-122.46436,Y,,Rescinded,0,0,Pilot,Shelter,Remove,,,03/18/2016 12:00:00 AM +0000,"(37.76230506011269, -122.46434677955479)",109,10,11,14
111,,3292,"16th St&Mission SE corner, far-side stop",MuniZone,85,Farside,0,Bus,37.76502,-122.41928,Y,,Approved,41,9,Pilot,Landor,Landor,,,03/10/2016 12:00:00 AM +0000,"(37.76501006159884, -122.41925358097458)",53,3,2,20
156,,20011,"Fell St&Pierce St NE corner, white zone, 9:30-8pm",WhiteZone,160,Nearside,8,RPP,37.77452,-122.43418,Y,PM,Approved,35,11,Pilot,New,,,,03/10/2016 12:00:00 AM +0000,"(37.77451006090467, -122.43415357464794)",23,4,11,9
145,,4329,"Castro St&25th SE corner, near-side stop",MuniZone,100,Nearside,0,Bus,37.7496,-122.43383,N,,Approved,7,40,Pilot,Shelter,Shelter,,,03/10/2016 12:00:00 AM +0000,"(37.749590065930214, -122.43380357958576)",84,3,5,22
75,,4476,"Eddy St&Fillmore St SW corner, near-side stop",MuniZone,100,Nearside,0,Bus,37.78137,-122.43244,N,,Rescinded,1,2,Pilot,Shelter,Shelter,,,03/10/2016 12:00:00 AM +0000,"(37.78136505621459, -122.43242678211108)",97,4,11,39
110,,20039,"Brannan St&5th St SE corner, white zone, 6-10am, 4-8pm",WhiteZone,85,Farside,3,Meter,37.77671,-122.39845,Y,AM PM,Approved,27,0,6/20/16,,,,,,"(37.77670005611509, -122.39842358373393)",32,1,10,34
82,,20006,"Church St&Market St NE corner, white zone, 6-10am, 4-8pm",WhiteZone,80,Farside,4,RPP,37.76812,-122.42899,N,AM PM,Rescinded,0,42,Pilot,New,,,Remove Zone,04/19/2016 12:00:00 AM +0000,"(37.768115057052924, -122.42897678416223)",28,7,5,5
80,,3330,"18th St&Dolores St NW corner, far-side stop",MuniZone,75,Farside,0,,37.76145,-122.42652,N,,Rescinded,0,35,Pilot,Shelter,Remove,,,03/18/2016 12:00:00 AM +0000,"(37.76144505742177, -122.4265067853037)",37,3,5,5
146,,3367,"19th Ave&Kirkham St NW corner, near-side stop",PeakExtensionZone,65,Nearside,2,Unreg,37.75995,-122.47695,Y,AM,Approved,42,18,Pilot,ExistingPole,Landor,,,03/10/2016 12:00:00 AM +0000,"(37.75994007022494, -122.47692356395261)",39,10,7,35
68,,5843,"Pacific Ave&Larkin St NE corner, near-side stop",MuniZone,FLAG STOP,Nearside,0,,37.7953,-122.41983,N,,Rescinded,0,0,Pilot,NewLandor,Remove,,,03/18/2016 12:00:00 AM +0000,"(37.79529505414711, -122.41981678237867)",16,6,3,32
61,,20035,"Gough St&Bush St SW corner, white zone, 6-10am UNDER 35 FT ONLY",WhiteZone,78,Farside,4,RPP,37.78796,-122.425311,Y,AM,Rescinded,17,0,6/6/16,,,,,,"(37.78795005815102, -122.42528457441418)",100,4,11,30
12,,6694,"Townsend St&4th St NE corner, near-side stop",MuniZone,100,Nearside,0,Bus,37.77726,-122.39491,N,,Approved,31,50,Pilot,Landor,Landor,,,03/10/2016 12:00:00 AM +0000,"(37.77725005481125, -122.39488358619957)",32,1,10,34
107,,3196,"7th St&Market St SW corner, street island",MuniZone,40,Nearside,0,Bus,37.78041,-122.41231,Y,,Rescinded,18,16,Pilot,Landor,Landor,,,03/10/2016 12:00:00 AM +0000,"(37.78040005782254, -122.41228357923283)",32,5,10,34
153,,20042,"Cesar Chavez St&Bartlett St NW corner, white zone, 6-10am, 4-8pm",WhiteZone,135,Farside,5,Meter,37.74824,-122.41949,Y,AM PM,Approved,51,0,8/22/16,,,,,,"(37.74823006399656, -122.41946358488521)",53,3,2,20
59,,4346,"Davis St&California St NW corner, near-side stop",MuniZone,75,Nearside,0,Bus,37.79363,-122.3977,N,,Rescinded,0,0,Pilot,Shelter,Shelter,,,03/10/2016 12:00:00 AM +0000,"(37.79362505266688, -122.39768678588095)",108,6,3,8
56,,3323,"18th St&Church St SE corner, far-side stop",MuniZone,75,Farside,0,,37.76127,-122.42795,N,,Rescinded,0,17,Pilot,Shelter,Remove,,,03/18/2016 12:00:00 AM +0000,"(37.76126505754094, -122.42793678511094)",37,3,5,5
3,,6879,"Valencia St&25th St SW corner, far-side stop",MuniZone,81,Farside,0,Bus,37.75028,-122.42059,Y,,Approved,30,46,Pilot,ExistingPole,Landor,,,03/10/2016 12:00:00 AM +0000,"(37.75027006390864, -122.42056358248486)",53,3,5,20
4,,20010,"Howard St&Fremont St NE corner, near-side stop",MuniZone,67,Nearside,0,Bus,37.78933,-122.39506,Y,,Rescinded,64,11,Pilot,New,,,,03/10/2016 12:00:00 AM +0000,"(37.78932005382759, -122.39503358177737)",32,1,10,8
17,,20041,"Mississippi St&17th St NE corner, white zone, 6-10am, 4-8pm",WhiteZone,90,Farside,4,Unreg,37.76554,-122.39479,Y,AM PM,Approved,18,0,6/20/16,,,,,,"(37.76553005676863, -122.39476358757541)",54,1,9,4
51,,3338,"18th St&Mission St NW corner, far-side stop",MuniZone,75,Farside,0,,37.76186,-122.41977,N,,Rescinded,0,3,Pilot,ExistingPole,Remove,,,03/18/2016 12:00:00 AM +0000,"(37.76185505689542, -122.41975678626477)",53,3,2,20
1,,3401,"19th Ave&Wawona St SE corner, near-side stop",MuniZone,75,Nearside,0,Bus,37.73734,-122.47515,Y,,Approved,41,16,Pilot,NewLandor,Landor,,,03/10/2016 12:00:00 AM +0000,"(37.73733007395177, -122.47512357083679)",46,10,8,41
19,,3478,"24th St&Noe St NE corner, near-side stop",MuniZone,70,Nearside,0,Bus,37.75148,-122.43172,Y,,Approved,1,13,Pilot,NewLandor,Landor,,,03/10/2016 12:00:00 AM +0000,"(37.75147006462155, -122.43169357968338)",84,3,5,22
129,,20003,"16th St&Shotwell St NW corner, white zone, 6-10 am, 4-10pm",WhiteZone,88,Farside,3,Meter,37.765354,-122.416703,Y,AM PM,Rescinded,85,48,Pilot,New,,,,03/10/2016 12:00:00 AM +0000,"(37.76526833239241, -122.41671671932377)",53,3,2,20
24,,6040,"Potrero Ave&25th St, SE corner, near-side stop",MuniZone,110,Nearside,0,Bus,37.75164,-122.40608,Y,,Approved,5,1,Pilot,Landor (vandalized),Landor,,,03/10/2016 12:00:00 AM +0000,"(37.751630061738425, -122.40605358749606)",54,3,9,20
157,,4971,"Harrison St&7th St NW corner, far-side stop",MuniZone,80,Farside,0,Bus,37.77567,-122.40626,Y,,Approved,4,0,Pilot,NewLandor,Landor,,,03/10/2016 12:00:00 AM +0000,"(37.77566005777105, -122.40623358168675)",32,1,10,34
72,,20049,"24th St & Church St SE corner, far-side, 6-10am",WhiteZone,113,Farside,5,Meter,37.75166,-122.42714,Y,AM,Approved,,,9/25/17,,,,,,"(37.75165160528342, -122.42726288032421)",52,3,5,22
71,,3209,"8th St & Market St SW corner, far-side stop",MuniZone,166,Farside,0,Bus,37.778507,-122.414582,Y,,Approved,37,103,Pilot,Shelter,Shelter,,,03/10/2016 12:00:00 AM +0000,"(37.77830872015082, -122.41442063415587)",32,5,10,34
114,,3541,"30th St & Mission St, SW Corner near-side stop, UNDER 35 FT ONLY",MuniZone,105,Nearside,0,Bus,37.742347,-122.422184,N,,Approved,,,,,,,,,"(37.74230203568314, -122.42218006616476)",83,9,2,2
41,,5012,"Hayes St&Steiner St SE corner, far-side stop",MuniZone,75,Farside,0,,37.77563,-122.43248,N,,Rescinded,0,50,Pilot,Shelter,Remove,,,03/18/2016 12:00:00 AM +0000,"(37.775625056689705, -122.43246678377062)",23,4,11,9
2,,4415,"Divisadero St&Eddy St SW corner, far-side stop",MuniZone,100,Farside,0,Bus,37.78023,-122.43896,Y,,Approved,32,16,Pilot,NewLandor,Landor,,,03/10/2016 12:00:00 AM +0000,"(37.78022006178409, -122.43893357127202)",13,4,11,39
6,,20005,"San Jose Ave&29th St SE corner, white zone, 4-8pm",WhiteZone,100,Mid-block,5,RPP,37.74325,-122.42287,Y,PM,Approved,92,35,Pilot,New,,,,03/10/2016 12:00:00 AM +0000,"(37.743240064654195, -122.42284358495719)",83,9,2,2
57,,4998,"Hayes St&Laguna St NE corner, near-side stop",MuniZone,75,Nearside,0,,37.77653,-122.42615,N,,Rescinded,0,12,Pilot,Shelter,Remove,,,03/18/2016 12:00:00 AM +0000,"(37.776525056153325, -122.42613678361194)",22,4,11,9
126,,5953,"Park Presidio&Geary Blvd NE corner, shuttle zone north of stop",MuniZone,FLAG STOP,Farside,0,Bus,37.780932,-122.472188,Y,,Approved,39,20,Pilot,Shelter,Shelter,,,03/10/2016 12:00:00 AM +0000,"(37.78024006722711, -122.47239356027563)",5,8,4,29
139,,20016,"Castro St&18th St NW corner, white zone, 6-10am",WhiteZone,100,Nearside,4,Meter,37.76114,-122.43514,Y,AM,Approved,77,61,Pilot,ExistingPole,,,,03/10/2016 12:00:00 AM +0000,"(37.761130064075786, -122.43511357605462)",38,3,5,5
16,,4424,"Divisadero St&Haight St SW corner, far-side stop",PeakExtensionZone,75,Farside,2,RPP,37.77105,-122.4371,Y,AM,Approved,69,65,Pilot,Shelter,Shelter,,,03/10/2016 12:00:00 AM +0000,"(37.771040062403365, -122.43707357361403)",112,4,11,3
10,,4421,"Divisadero St&Geary Blvd NE corner, far-side stop",MuniZone,75,Farside,0,Bus,37.78368,-122.43945,Y,,Approved,40,28,Pilot,Shelter,Shelter,,,03/10/2016 12:00:00 AM +0000,"(37.78367006153627, -122.43942356979873)",103,4,11,15
98,,6022,"Post St&Powell St SE corner, far-side stop",MuniZone,100-BI,Farside,0,Bus,37.7883,-122.40793,Y,,Approved,2,0,Pilot,NewLandor,Landor,,,03/10/2016 12:00:00 AM +0000,"(37.788290055852855, -122.40790357797245)",19,6,3,8
122,,20032,"Fell St&Laguna St NW corner, white zone, 4-8pm",WhiteZone,80,Farside,2,Unreg,37.7755,-122.42643,Y,PM,Approved,8,0,5/23/16,,,,White Zone,04/19/2016 12:00:00 AM +0000,"(37.77549006025804, -122.42640357569205)",22,4,11,9
45,,3536,"30th St&Church St SW corner, flag stop",MuniZone,FLAG STOP,Nearside,0,,37.74204,-122.42676,N,,Rescinded,0,29,Pilot,ExistingPole,Remove,,,03/18/2016 12:00:00 AM +0000,"(37.74203505903801, -122.42674678751341)",59,9,5,10
58,,3322,"18th St&Church St NE corner, near-side stop",MuniZone,75,Nearside,0,,37.76135,-122.4282,N,,Rescinded,0,47,Pilot,Shelter,Remove,,,03/18/2016 12:00:00 AM +0000,"(37.76134505755257, -122.42818678506433)",37,3,5,5
77,,20052,"Larkin St & Post St NE corner, far-side, 4-10pm",WhiteZone,92,Farside,4,Meter,37.787195,-122.418268,Y,PM,Approved,,,1/29/18,,,,,,"(37.78716298169409, -122.41814567957229)",50,6,3,21
109,,3649,"Arguello Blvd&Geary Blvd NW corner, near-side stop",MuniZone,100,Nearside,0,Bus,37.78145,-122.45897,Y,,Approved,8,0,Pilot,Shelter,Shelter,,,03/10/2016 12:00:00 AM +0000,"(37.78144006314582, -122.45894356614328)",5,8,4,11
132,,5952,"Park Presidio&Geary Blvd SW corner, shuttle zone south of stop",MuniZone,FLAG STOP,Farside,0,Bus,37.780326,-122.472485,Y,,Approved,43,40,Pilot,Shelter,Shelter,,,03/10/2016 12:00:00 AM +0000,"(37.78115006613703, -122.47218356120142)",5,8,4,11
53,,5011,"Hayes St&Steiner St NW corner, far-side stop",MuniZone,90,Farside,0,,37.77563,-122.4332,N,,Rescinded,0,19,Pilot,Shelter,Remove,,,03/18/2016 12:00:00 AM +0000,"(37.775625056742285, -122.4331867826631)",23,4,11,9
40,,4495,"Eddy St&Van Ness Ave SE corner, far-side stop",MuniZone,75,Farside,0,Bus,37.7829,-122.42035,N,,Rescinded,0,0,Pilot,Shelter,Shelter,,,03/10/2016 12:00:00 AM +0000,"(37.78289005820492, -122.42032357674245)",20,4,10,36
128,,4410,"Divisadero St&California St SW corner, far-side stop",MuniZone,65,Farside,0,Bus,37.78782,-122.44049,Y,,Rescinded,74,72,Pilot,ExistingPole,Landor,,,03/10/2016 12:00:00 AM +0000,"(37.78781006027186, -122.44046357016306)",103,4,6,30
48,,20007,"Lombard St&Pierce St SE corner, white zone, 6-10am, 4-8pm",WhiteZone,82,Farside,2,Meter,37.79942,-122.43896,Y,AM PM,Rescinded,47,56,Pilot,New,,,,03/10/2016 12:00:00 AM +0000,"(37.799415055207135, -122.4389467780423)",14,4,6,13
14,,3932,"Cesar Chavez St&Folsom St SW corner, far-side stop",MuniZone,15,Farside,0,Bus,37.74815,-122.41382,Y,,Approved,13,9,Pilot,Shelter,Shelter,,,03/10/2016 12:00:00 AM +0000,"(37.74814006259056, -122.41379358574291)",83,3,2,2
52,,20008,"South Van NessAve&Market St SW corner, white zone, 6-10am",WhiteZone,141,Farside,5,Meter,37.77473,-122.41924,Y,AM,Rescinded,0,44,Pilot,New,,,,03/10/2016 12:00:00 AM +0000,"(37.77472505579688, -122.41922678485308)",32,1,10,20
135,,20023,"19th Ave&Wawona St, W side, mid-block, white zone, 6-10am",WhiteZone,120,Mid-block,6,Unreg,37.73855,-122.47549,Y,AM,Approved,39,0,4/1/16,NewLandor,,,,03/10/2016 12:00:00 AM +0000,"(37.73854007387703, -122.47546357064623)",40,10,7,35
106,,20057,"South Van Ness Ave & 17th St, SE corner, white zone, 6-10am",WhiteZone,100,Farside,5,Unreg,37.76332,-122.417446,Y,AM,Approved,,,6/26/19,,,,,,"(37.763335933600686, -122.41738943644701)",53,3,2,20
34,,7185,"Broadway&Grant Ave NW corner, far-side stop",MuniZone,100,Farside,0,Bus,37.79785,-122.40734,Y,,Rescinded,17,0,4/1/16,NewLandor,Landor,,,03/18/2016 12:00:00 AM +0000,"(37.797840054023574, -122.40731357695212)",106,6,3,6
70,,3466,"24th St & Dolores St NW corner, far-side stop",PeakExtensionZone,75-130,Farside,2,RPP,37.75185,-122.42559,Y,PM,Approved,,,9/25/17,,,,,,"(37.7518508851348, -122.42545020457194)",52,3,5,22
31,,4408,"Divisadero St&Bush St NE corner, far-side stop",PeakExtensionZone,90-134,Farside,2,Meter,37.78646,-122.440026,Y,,Approved,38,,2/24/17,,,,,,"(37.786558884331704, -122.43987474039623)",103,4,6,30
164,,20029,"Oak St&Steiner St SE corner, white zone, 6-10am",WhiteZone,80,Farside,3,RPP,37.77375,-122.43233,Y,AM,Approved,34,0,5/23/16,,,,White Zone,04/19/2016 12:00:00 AM +0000,"(37.773740061832925, -122.43230357501349)",26,4,11,9
28,,7551,"Cesar Chavez St&Mission St SE corner, far-side stop",MuniZone,80,Farside,0,Bus,37.7481,-122.41808,Y,,Approved,8,12,Pilot,Shelter,Shelter,,,03/10/2016 12:00:00 AM +0000,"(37.7480900639053, -122.41805358411207)",83,3,2,2
37,,5284,"Lombard St&Pierce St SW corner, near-side stop",MuniZone,107,Nearside,0,Bus,37.79954,-122.43921,Y,,Rescinded,69,86,Pilot,NewLandor,Landor,,,03/10/2016 12:00:00 AM +0000,"(37.799535055215536, -122.43919677899102)",17,4,6,13
63,,4623,"Fillmore St&Jackson St NE corner, far-side stop",MuniZone,75,Farside,0,Bus,37.79276,-122.43456,N,,Rescinded,0,30,Pilot,Shelter,Shelter,,,03/10/2016 12:00:00 AM +0000,"(37.79275505543284, -122.4345467804728)",102,4,6,30
76,,7215,"Ellis St&Mason St NE corner, near-side stop",MuniZone,65,Nearside,0,Bus,37.78536,-122.40937,N,,Rescinded,0,6,Pilot,Shelter,Shelter,,,03/10/2016 12:00:00 AM +0000,"(37.78535505420076, -122.4093567850957)",19,5,10,36
154,,5834,"O'Shaughnessy Blvd&Portola Dr SW corner, far-side stop",MuniZone,FLAG STOP,Farside,0,Bus,37.74502,-122.45127,Y,,Approved,19,6,Pilot,Shelter (old),Shelter,,,03/10/2016 12:00:00 AM +0000,"(37.74501006857903, -122.45124357551163)",72,9,5,10
101,,3172,"5th St&Mission St NE corner, far-side stop",MuniZone,60,Farside,0,Bus,37.78296,-122.40665,Y,,Rescinded,5,0,4/1/16,NewLandor,Landor,,,03/18/2016 12:00:00 AM +0000,"(37.78295005719909, -122.40662358078323)",32,5,10,34
22,,5273,"Lombard St&Divisadero St NW corner, far-side stop",MuniZone,125,Farside,0,Bus,37.79889,-122.44279,Y,,Approved,10,0,Pilot,Shelter + Landor,Shelter,,,03/10/2016 12:00:00 AM +0000,"(37.79888005853025, -122.44276356653442)",14,4,6,13
69,,3460,"24th St&Church St NE corner, bus bulb",MuniZone,40,Nearside,0,Bus,37.75174,-122.42729,Y,,Rescinded,81,27,Pilot,Shelter (old),Shelter,,,03/10/2016 12:00:00 AM +0000,"(37.75173006427702, -122.42726358131505)",52,3,5,22
60,,20013,"Powell St&Filbert St NE corner, white zone, 4-8pm",WhiteZone,40,Farside,2,RPP,37.80121,-122.41105,N,PM,Rescinded,0,28,Pilot,New,,,Remove Zone,04/19/2016 12:00:00 AM +0000,"(37.801205053018904, -122.41103678300469)",106,6,3,23
159,,20001,"17th St&Wisconsin St NW corner, white zone, 6-10am, 4-8pm",WhiteZone,60,Farside,3,Unreg,37.76499,-122.39998,N,AM PM,Approved,13,17,Pilot,ExistingPole,,,,03/10/2016 12:00:00 AM +0000,"(37.764980057192744, -122.39995358586297)",54,1,9,4
138,,3650,"Arguello Blvd&Geary Blvd SE corner, near-side stop",MuniZone,106,Nearside,0,Bus,37.78108,-122.45877,Y,,Approved,2,2,Pilot,Shelter,Shelter,,,03/10/2016 12:00:00 AM +0000,"(37.78107006416156, -122.45874356521605)",12,8,4,18
67,,6878,"Valencia St&25th St NE corner, far-side stop",MuniZone,60,Farside,0,,37.75075,-122.42044,Y,,Rescinded,0,66,Pilot,ExistingPole,Landor,,,03/10/2016 12:00:00 AM +0000,"(37.750745057859525, -122.42042678745035)",53,3,2,20
64,,3851,"California St&Battery St SE corner, far-side stop",MuniZone,FLAG STOP,Farside,0,Bus,37.79314,-122.40007,Y,,Rescinded,0,0,Pilot,NewLandor,Landor,,,03/10/2016 12:00:00 AM +0000,"(37.793135052880444, -122.40005678558346)",108,6,3,8
105,,20033,"Fell St&Masonic St NW corner, white zone, 6-10am, 4-8pm",WhiteZone,116,Farside,3,RPP,37.77295,-122.44623,Y,AM PM,Approved,14,0,5/23/16,,,,White Zone,04/19/2016 12:00:00 AM +0000,"(37.77294006391376, -122.44620357103052)",24,7,11,12
92,,6816,"Van Ness Ave&McAllister St SW corner, far-side stop",MuniZone,75,Farside,0,,37.77969,-122.42032,Y,,Rescinded,0,31,Pilot,Shelter,Shelter,,,03/10/2016 12:00:00 AM +0000,"(37.77968505546748, -122.42030678411666)",21,4,11,9
136,,6692,"Townsend St&3rd St, NW corner, far-side stop",MuniZone,80,Farside,0,Bus,37.77868,-122.39311,N,,Approved,10,8,Pilot,ExistingPole,Landor,,,03/10/2016 12:00:00 AM +0000,"(37.77867005456274, -122.3930835853042)",32,1,10,34
73,,20015,"8th St & Market St SW corner, white zone, 6-10am, 3-7pm",WhiteZone,85,Farside,4,Meter,37.77827,-122.41427,Y,AM PM,Rescinded,59,71,Pilot,ExistingPole,,,,03/10/2016 12:00:00 AM +0000,"(37.77826005814191, -122.41424358018799)",32,5,10,34
62,,20055,"Pine St, north side, east of Van Ness Ave, white zone, 4-10pm",WhiteZone,99,Mid-block,5,Meter,37.789598,-122.421557,Y,PM,Approved,,,1/29/18,,,,,,"(37.78956315475298, -122.4216540717695)",105,4,3,21
79,,5948,"Park Presidio Blvd&California St SW corner, far-side stop",MuniZone,FLAG STOP,Farside,0,Bus,37.78487,-122.47248,Y,,Rescinded,3,2,Pilot,Shelter (old),Shelter,,,03/10/2016 12:00:00 AM +0000,"(37.78486505885278, -122.4724667757282)",5,8,4,11
116,,3744,"Bryant St&23rd St SE corner, near-side stop",MuniZone,85,Nearside,0,Bus,37.75431,-122.40919,N,,Approved,4,4,Pilot,New,,,,03/10/2016 12:00:00 AM +0000,"(37.754300061745084, -122.40916358572231)",53,3,2,20
21,,7750,"Cesar Chavez St&Florida ST NE corner, near-side stop",MuniZone,FLAG STOP,Nearside,0,Bus,37.748374,-122.409558,Y,,Approved,16,11,Pilot,,Landor,,,03/10/2016 12:00:00 AM +0000,"(37.74841587725341, -122.40948223935537)",53,3,2,20
143,,20021,"Townsend St&4th St south side, mid-block",WhiteZone,160,Mid-block,0,24hr,37.77603,-122.39622,N,,Approved,27,85,Pilot,NewLandor,,,,03/10/2016 12:00:00 AM +0000,"(37.776020056008235, -122.39619358514622)",34,1,10,4
88,,20045,"Gough St&Turk St SW corner, white zone, 6-10am",WhiteZone,75 to 205 feet south,Farside,6,Meter,37.78125,-122.42394,Y,AM,Rescinded,0,0,9/12/16,,,,,,"(37.78124505560351, -122.42392678339486)",100,4,11,39
54,,4475,"Eddy St&Fillmore St NE corner, near-side stop",MuniZone,100,Nearside,0,Bus,37.78149,-122.43221,N,,Rescinded,0,1,Pilot,NewLandor,Landor,,,03/10/2016 12:00:00 AM +0000,"(37.78148505618795, -122.43219678213153)",97,4,11,39
121,,3734,"Bryant St&18th St NW corner, near-side stop",MuniZone,85,Nearside,0,Bus,37.76187,-122.4102,N,,Approved,10,13,Pilot,Shelter,Shelter,,,03/10/2016 12:00:00 AM +0000,"(37.76186006019571, -122.41017358369635)",53,3,2,20
18,,3930,"Cesar Chavez St&Florida St SW corner, near-side stop",MuniZone,75,Nearside,0,Bus,37.74823,-122.40976,Y,,Approved,19,14,Pilot,Shelter,Shelter,,,03/10/2016 12:00:00 AM +0000,"(37.74822006228789, -122.40973358734044)",60,3,2,2
90,,4983,"Hayes St&Buchanan St NW corner, far-side stop",MuniZone,75,Farside,0,,37.77626,-122.42827,N,,Rescinded,0,2,Pilot,Shelter,Remove,,,03/18/2016 12:00:00 AM +0000,"(37.7762550563304, -122.42825678332649)",22,4,11,9
140,,7669,"9th St&Market St SE corner, near-side stop",MuniZone,95,Nearside,0,Bus,37.77748,-122.41627,Y,,Approved,118,58,Pilot,Landor,Landor,,,03/10/2016 12:00:00 AM +0000,"(37.77747005835304, -122.4162435779807)",32,5,10,34
96,,3400,"19th Ave&Wawona St NW, near-side stop",MuniZone,,Nearside,0,,37.73756,-122.4755,Y,,Rescinded,0,35,Pilot,,,,,,"(37.737555062959686, -122.47548678075658)",40,10,7,35
23,,5829,"100 O'Shaughnessy Blvd east side, mid-block",MuniZone,FLAG STOP,Mid-block,0,Bus,37.74439,-122.4506,Y,,Approved,5,7,Pilot,Shelter (old),Shelter,,,03/10/2016 12:00:00 AM +0000,"(37.74438006958201, -122.45057357568452)",96,9,5,10
29,,3342,"18th St&Pennsylvania Ave NE corner, near-side stop",MuniZone,75,Nearside,0,Bus,37.76283,-122.39347,N,,Approved,2,2,Pilot,ExistingPole,Landor,,,03/10/2016 12:00:00 AM +0000,"(37.76282005789579, -122.39344358908659)",54,2,9,26
93,,5285,"Lombard St&Pierce St NE corner, near-side stop",MuniZone,110,Nearside,0,Bus,37.79931,-122.43944,Y,,Rescinded,90,70,Pilot,Shelter,Shelter,,,03/10/2016 12:00:00 AM +0000,"(37.799305055251274, -122.43942677898335)",14,4,6,13
66,,4997,"Hayes St&Larkin St NW corner, far-side stop",MuniZone,90,Farside,0,Bus,37.77771,-122.41685,N,,Rescinded,0,3,Pilot,Shelter,Shelter,,,03/10/2016 12:00:00 AM +0000,"(37.77770505537701, -122.41683678586476)",21,4,10,36
39,,4047,"Clement St&12th Ave NW corner, far-side stop",MuniZone,60,Farside,0,,37.7827,-122.47116,N,,Rescinded,0,1,Pilot,Shelter,Remove,,,03/18/2016 12:00:00 AM +0000,"(37.78269505893442, -122.47114677717686)",5,8,4,11
27,,20022,"Potrero Ave&25th St, SW corner, white zone, 6-10am",WhiteZone,100,Farside,5,Unreg,37.75097,-122.40628,Y,AM,Approved,9,1,Pilot,ExistingPole,,,,03/10/2016 12:00:00 AM +0000,"(37.750960061808236, -122.40625358854366)",53,3,2,20
43,,3141,"3rd St&Palou Ave NE corner, far-side stop",MuniZone,150,Farside,0,,37.73384,-122.39091,Y,,Rescinded,0,0,Pilot,Shelter,Remove,,,03/18/2016 12:00:00 AM +0000,"(37.733835057101885, -122.39089679481921)",86,2,9,1
87,,4494,"Eddy St&Van Ness Ave NE corner, near-side stop",MuniZone,100,Nearside,0,Bus,37.78297,-122.42059,N,,Rescinded,0,6,Pilot,Shelter,Shelter,,,03/10/2016 12:00:00 AM +0000,"(37.78296005821668, -122.42056357569852)",20,4,10,36
155,,20026,"16th St&Sanchez St SE corner, white zone, 6-10am",WhiteZone,80,Farside,4,RPP,37.76434,-122.43058,Y,AM,Approved,37,0,5/23/16,,,,White Zone,04/19/2016 12:00:00 AM +0000,"(37.76433006347958, -122.43055357736516)",37,3,5,5
42,,20054,"Bush St & Franklin St SE corner, far-side, 6-10am",WhiteZone,118,Farside,5,Meter,37.788237,-122.423274,Y,AM,Approved,,,1/29/18,,,,,,"(37.788194050984146, -122.42327560768604)",100,4,6,39
119,,6483,"Stanyan St&Waller St NW corner, near-side stop",MuniZone,245,Nearside,0,Bus,37.76841,-122.45348,Y,,Approved,82,60,Pilot,ExistingPole,Landor,,,03/10/2016 12:00:00 AM +0000,"(37.76840006581647, -122.45345356947435)",9,7,11,12
94,,5192,"Judah St&7th Ave SW corner, near-side stop",MuniZone,75,Nearside,0,,37.7622,-122.46421,Y,,Rescinded,0,0,Pilot,Shelter,Remove,,,03/18/2016 12:00:00 AM +0000,"(37.76219506011077, -122.46419677958987)",109,10,11,14
86,,20017,"Church St&15th St NW corner, white zone, 6-10am",WhiteZone,100,Nearside,4,Meter,37.76623,-122.42883,N,AM,Rescinded,0,31,Pilot,ExistingPole,,,Remove Zone,04/19/2016 12:00:00 AM +0000,"(37.76622505719681, -122.42881678440509)",37,3,5,5
133,,20004,"Lombard Street, midblock, E of Franklin St, white zone, 6-10am",WhiteZone,134,Farside,6,RPP,37.799235,-122.424336,Y,AM,Approved,100,142,Pilot,New,,,,03/10/2016 12:00:00 AM +0000,"(37.80110847808869, -122.42555677284587)",15,4,6,13
49,,20020,"San Jose Ave&Dolores St NW corner, white zone, 6-10am",WhiteZone,45,Nearside,2,Unreg,37.74109,-122.42389,Y,AM,Rescinded,58,9,Pilot,ExistingPole,,,,03/10/2016 12:00:00 AM +0000,"(37.7410850589071, -122.42387678805194)",59,9,5,10
32,,20030,"16th St, north side, east of Market St, white zone, 4-10pm",WhiteZone,73,Farside,3,RPP,37.764367,-122.432396,Y,PM,Approved,48,0,5/23/16,,,,White Zone,04/19/2016 12:00:00 AM +0000,"(37.7643448966171, -122.43245470707944)",38,3,5,5
91,,6811,"Van Ness Ave&Grove St NE corner, far-side stop",MuniZone,95,Farside,0,,37.77869,-122.41982,Y,,Rescinded,0,64,Pilot,Shelter,Shelter,,,03/10/2016 12:00:00 AM +0000,"(37.77868505551323, -122.41980678530732)",21,4,10,36
26,,5466,"North Point St&Mason St NW corner, far-side stop",MuniZone,100,Farside,0,Bus,37.80656,-122.41424,Y,,Approved,17,0,Pilot,Shelter,Shelter,,,03/10/2016 12:00:00 AM +0000,"(37.806550053811485, -122.41421357190886)",99,6,3,23
160,,4414,"Divisadero St&Eddy St SE corner, near-side stop",MuniZone,75,Nearside,0,Bus,37.7805,-122.43881,Y,,Approved,35,26,Pilot,Shelter,Shelter,,,03/10/2016 12:00:00 AM +0000,"(37.78049006175095, -122.43878357126316)",97,4,11,39
162,,20040,"Valencia St&26th St SW corner, far-side stop",PeakExtensionZone,156,Farside,2,Meter,37.74873,-122.42039,Y,AM PM,Approved,56,0,6/20/16,,,,,,"(37.74872006402176, -122.42036358369407)",53,3,5,20
147,,20043,"Lombard St&Scott St NW corner, white zone, 4-8pm",WhiteZone,125,Farside,6,Meter,37.79927,-122.44136,Y,PM,Approved,101,0,9/12/16,,,,,,"(37.79926005839447, -122.4413335657038)",17,4,6,13
7,,20019,"Castro St&Market St NE corner, white zone, 4-8pm",WhiteZone,90,Farside,4,RPP,37.76294,-122.43514,Y,PM,Approved,77,46,Pilot,ExistingPole,,,,03/10/2016 12:00:00 AM +0000,"(37.762930063927634, -122.43511357684619)",28,7,5,5
33,,4102,"Columbus Ave&Broadway SW corner, far-side stop",MuniZone,95,Farside,0,Bus,37.79763,-122.40647,Y,,Rescinded,36,0,4/1/16,NewLandor,Landor,,,03/18/2016 12:00:00 AM +0000,"(37.79762005397804, -122.40644357710775)",104,6,3,6
97,,5997,"Polk St&Post St NE corner, far-side stop",MuniZone,80,Farside,0,Bus,37.78701,-122.41989,Y,,Rescinded,28,11,Pilot,ExistingPole,Landor,,,03/10/2016 12:00:00 AM +0000,"(37.786966330835796, -122.41986354433836)",50,4,3,21
163,,3402,"19th Ave& Winston Dr NE corner, far-side stop",MuniZone,FLAG STOP,Farside,0,Bus,37.72726,-122.4751,Y,,Approved,18,10,Pilot,NewLandor,Landor,,,03/10/2016 12:00:00 AM +0000,"(37.727250074777, -122.47507357300883)",41,10,8,16
134,,3375,"19th Ave&Noriega St SW corner, far-side stop",MuniZone,75,Farside,0,Bus,37.75392,-122.47653,Y,,Approved,10,6,Pilot,ExistingPole,Landor,,,03/10/2016 12:00:00 AM +0000,"(37.7539100716897, -122.4765035657133)",39,10,7,35
44,,6877,"Valencia St&24th St SW corner, far-side stop",MuniZone,60,Farside,0,,37.75186,-122.42074,Y,,Rescinded,0,70,Pilot,Shelter,Shelter,,,03/10/2016 12:00:00 AM +0000,"(37.75185505778999, -122.42072678627713)",53,3,5,20
161,,7592,"Cesar Chavez St&Valencia St SE corner, far-side stop",MuniZone,80,Farside,0,Bus,37.74806,-122.42006,Y,,Approved,44,16,Pilot,Shelter,Shelter,,,03/10/2016 12:00:00 AM +0000,"(37.74805006405296, -122.42003358482086)",83,3,2,2
